{
  "updated": "2026-07-21T16:38:19.465Z",
  "total": 103,
  "withImage": 56,
  "withDetail": 85,
  "stations": [
    {
      "code": "LA01 (TX.231A)",
      "name": "ชุมชนประชาบำรุง",
      "basin": "ภาคใต้ฝั่งตะวันตก",
      "amphur": "ละงู",
      "province": "สตูล",
      "lat": 6.875984,
      "lon": 99.78319000000026,
      "level": 0.05,
      "bank": 4.01,
      "warning": 3.01,
      "critical": 4.01,
      "hasImage": true,
      "hasDetail": true,
      "cams": 1,
      "imgStatus": 200,
      "dt": "2026-07-21T16:30:00.000Z"
    },
    {
      "code": "LA02 (TLA-R1)",
      "name": "โรงเรียนบ้านหนองหอยโข่ง",
      "basin": "ภาคใต้ฝั่งตะวันตก",
      "amphur": "ละงู",
      "province": "สตูล",
      "lat": 6.992179,
      "lon": 99.848732,
      "level": null,
      "bank": 5,
      "warning": 3,
      "critical": 5,
      "hasImage": false,
      "hasDetail": false,
      "cams": 0,
      "imgStatus": null,
      "dt": null
    },
    {
      "code": "LA03 (TX.333)",
      "name": "บ้านนาข่าเหนือ",
      "basin": "ภาคใต้ฝั่งตะวันตก",
      "amphur": "ละงู",
      "province": "สตูล",
      "lat": 6.914998,
      "lon": 99.85133099999986,
      "level": 2.72,
      "bank": 10.68,
      "warning": 9.68,
      "critical": 10.68,
      "hasImage": true,
      "hasDetail": true,
      "cams": 1,
      "imgStatus": 200,
      "dt": "2026-07-21T16:30:00.000Z"
    },
    {
      "code": "LA04 (TX.334)",
      "name": "บ้านอุใดใต้",
      "basin": "ภาคใต้ฝั่งตะวันตก",
      "amphur": "ควนกาหลง",
      "province": "สตูล",
      "lat": 6.928031,
      "lon": 99.935987,
      "level": 23.84,
      "bank": 32.4,
      "warning": 31.4,
      "critical": 32.4,
      "hasImage": true,
      "hasDetail": true,
      "cams": 1,
      "imgStatus": 200,
      "dt": "2026-07-21T16:30:00.000Z"
    },
    {
      "code": "LA05 (TX.335)",
      "name": "บ้านเหนือคลอง",
      "basin": "ภาคใต้ฝั่งตะวันตก",
      "amphur": "ควนกาหลง",
      "province": "สตูล",
      "lat": 6.995637,
      "lon": 100.01673199999988,
      "level": null,
      "bank": 74.41,
      "warning": 73.41,
      "critical": 74.41,
      "hasImage": true,
      "hasDetail": true,
      "cams": 1,
      "imgStatus": 200,
      "dt": "2026-02-16T03:30:00.000Z"
    },
    {
      "code": "LA06 (TX.150)",
      "name": "บ้านวังพระเคียน",
      "basin": "ภาคใต้ฝั่งตะวันตก",
      "amphur": "มะนัง",
      "province": "สตูล",
      "lat": 6.940837,
      "lon": 99.873247,
      "level": null,
      "bank": 15.8,
      "warning": 14.8,
      "critical": 15.8,
      "hasImage": false,
      "hasDetail": true,
      "cams": 0,
      "imgStatus": null,
      "dt": null
    },
    {
      "code": "LA07 (TX.336)",
      "name": "บ้านผังปาล์ม 1",
      "basin": "ภาคใต้ฝั่งตะวันตก",
      "amphur": "มะนัง",
      "province": "สตูล",
      "lat": 6.998849,
      "lon": 99.91101299999964,
      "level": 14.46,
      "bank": 20.61,
      "warning": 19.61,
      "critical": 20.61,
      "hasImage": true,
      "hasDetail": true,
      "cams": 1,
      "imgStatus": 200,
      "dt": "2026-07-21T16:30:00.000Z"
    },
    {
      "code": "LA08 (TX.337)",
      "name": "บ้านวังสายทอง",
      "basin": "ภาคใต้ฝั่งตะวันตก",
      "amphur": "มะนัง",
      "province": "สตูล",
      "lat": 7.058407,
      "lon": 99.9010390000003,
      "level": 18.66,
      "bank": 25.66,
      "warning": 24.66,
      "critical": 25.66,
      "hasImage": true,
      "hasDetail": true,
      "cams": 1,
      "imgStatus": 200,
      "dt": "2026-07-21T16:30:00.000Z"
    },
    {
      "code": "LA09 (TLA-R2)",
      "name": "บ้านทับทุ่ง",
      "basin": "ภาคใต้ฝั่งตะวันตก",
      "amphur": "ทุ่งหว้า",
      "province": "สตูล",
      "lat": 7.135542,
      "lon": 99.93703799999967,
      "level": null,
      "bank": 5,
      "warning": 3,
      "critical": 5,
      "hasImage": false,
      "hasDetail": false,
      "cams": 0,
      "imgStatus": null,
      "dt": null
    },
    {
      "code": "BNR.01",
      "name": "ปตร.บางนราตอนบน",
      "basin": "ภาคใต้ฝั่งตะวันออกตอนล่าง",
      "amphur": "เมือง",
      "province": "นราธิวาส",
      "lat": 6.41331,
      "lon": 101.83413999999969,
      "level": 0.34,
      "bank": 1.5,
      "warning": 1,
      "critical": 1.5,
      "hasImage": true,
      "hasDetail": true,
      "cams": 1,
      "imgStatus": 200,
      "dt": "2026-02-11T06:30:00.000Z"
    },
    {
      "code": "BNR.02",
      "name": "ปตร.น้ำแบ่ง",
      "basin": "ภาคใต้ฝั่งตะวันออกตอนล่าง",
      "amphur": "ตากใบ",
      "province": "นราธิวาส",
      "lat": 6.331683,
      "lon": 101.95729700000034,
      "level": 0.73,
      "bank": 4.5,
      "warning": 3.5,
      "critical": 4.5,
      "hasImage": true,
      "hasDetail": true,
      "cams": 1,
      "imgStatus": 200,
      "dt": "2026-07-21T16:00:00.000Z"
    },
    {
      "code": "BNR.03",
      "name": "ปตร.บางนราตอนล่าง",
      "basin": "ภาคใต้ฝั่งตะวันออกตอนล่าง",
      "amphur": "ตากใบ",
      "province": "นราธิวาส",
      "lat": 6.24644,
      "lon": 102.03023000000012,
      "level": 0.57,
      "bank": 3.2,
      "warning": 2.2,
      "critical": 3.2,
      "hasImage": true,
      "hasDetail": true,
      "cams": 1,
      "imgStatus": 200,
      "dt": "2026-07-21T16:30:00.000Z"
    },
    {
      "code": "BNR.04",
      "name": "ปตร.สุไหงปาดี 1",
      "basin": "ภาคใต้ฝั่งตะวันออกตอนล่าง",
      "amphur": "ตากใบ",
      "province": "นราธิวาส",
      "lat": 6.26243,
      "lon": 101.93060000000041,
      "level": null,
      "bank": 3.5,
      "warning": 3,
      "critical": 3.5,
      "hasImage": false,
      "hasDetail": true,
      "cams": 0,
      "imgStatus": null,
      "dt": null
    },
    {
      "code": "BNR.05",
      "name": "ปตร.สุไหงปาดี 2",
      "basin": "ภาคใต้ฝั่งตะวันออกตอนล่าง",
      "amphur": "ตากใบ",
      "province": "นราธิวาส",
      "lat": 6.23238,
      "lon": 101.9189499999999,
      "level": null,
      "bank": 4,
      "warning": 3.5,
      "critical": 4,
      "hasImage": false,
      "hasDetail": true,
      "cams": 0,
      "imgStatus": null,
      "dt": null
    },
    {
      "code": "BNR.06",
      "name": "ยะกัง",
      "basin": "ภาคใต้ฝั่งตะวันออกตอนล่าง",
      "amphur": "ระแงะ",
      "province": "นราธิวาส",
      "lat": 6.29775,
      "lon": 101.73172000000012,
      "level": null,
      "bank": 17,
      "warning": 16,
      "critical": 17,
      "hasImage": false,
      "hasDetail": true,
      "cams": 0,
      "imgStatus": null,
      "dt": null
    },
    {
      "code": "BNR.07",
      "name": "บ้านบางปอ",
      "basin": "ภาคใต้ฝั่งตะวันออกตอนล่าง",
      "amphur": "เมือง",
      "province": "นราธิวาส",
      "lat": 6.31714,
      "lon": 101.83723000000013,
      "level": null,
      "bank": 6,
      "warning": 5,
      "critical": 6,
      "hasImage": false,
      "hasDetail": true,
      "cams": 0,
      "imgStatus": null,
      "dt": null
    },
    {
      "code": "BNR.08",
      "name": "สะพานยะกัง",
      "basin": "ภาคใต้ฝั่งตะวันออกตอนล่าง",
      "amphur": "เมือง",
      "province": "นราธิวาส",
      "lat": 6.40016,
      "lon": 101.82338,
      "level": 1.24,
      "bank": 2.2,
      "warning": 1.7,
      "critical": 2.2,
      "hasImage": true,
      "hasDetail": true,
      "cams": 1,
      "imgStatus": 200,
      "dt": "2026-07-21T16:30:00.000Z"
    },
    {
      "code": "BNR.09",
      "name": "บ้านตาเซะ",
      "basin": "ภาคใต้ฝั่งตะวันออกตอนล่าง",
      "amphur": "สุไหงปาดี",
      "province": "นราธิวาส",
      "lat": 6.08365,
      "lon": 101.92675,
      "level": null,
      "bank": 15,
      "warning": 14,
      "critical": 15,
      "hasImage": false,
      "hasDetail": true,
      "cams": 0,
      "imgStatus": null,
      "dt": null
    },
    {
      "code": "BNR.10",
      "name": "บ้านศาลาอูมา",
      "basin": "ภาคใต้ฝั่งตะวันออกตอนล่าง",
      "amphur": "แว้ง",
      "province": "นราธิวาส",
      "lat": 5.98515,
      "lon": 101.94502,
      "level": null,
      "bank": 14,
      "warning": 13,
      "critical": 14,
      "hasImage": false,
      "hasDetail": true,
      "cams": 0,
      "imgStatus": null,
      "dt": null
    },
    {
      "code": "STN01",
      "name": "สถานี ชป.คลองวาด",
      "basin": "ทะเลสาบสงขลา",
      "amphur": "หาดใหญ่",
      "province": "สงขลา",
      "lat": 6.990953,
      "lon": 100.38278,
      "level": 13.31,
      "bank": 15,
      "warning": 14,
      "critical": 15,
      "hasImage": true,
      "hasDetail": true,
      "cams": 1,
      "imgStatus": 200,
      "dt": "2026-07-21T16:30:00.000Z"
    },
    {
      "code": "STN02",
      "name": "สถานี X.181",
      "basin": "ทะเลสาบสงขลา",
      "amphur": "บางกล่ำ",
      "province": "สงขลา",
      "lat": 7.060311,
      "lon": 100.45427099999989,
      "level": 0.02,
      "bank": 2.3,
      "warning": 1.5,
      "critical": 2.3,
      "hasImage": true,
      "hasDetail": true,
      "cams": 1,
      "imgStatus": 200,
      "dt": "2026-07-21T16:30:00.000Z"
    },
    {
      "code": "STN03",
      "name": "สถานี X.194",
      "basin": "ทะเลสาบสงขลา",
      "amphur": "หาดใหญ่",
      "province": "สงขลา",
      "lat": 7.1558,
      "lon": 100.46699999999983,
      "level": -0.28,
      "bank": 6,
      "warning": 5,
      "critical": 6,
      "hasImage": true,
      "hasDetail": true,
      "cams": 1,
      "imgStatus": 200,
      "dt": "2026-07-21T16:30:00.000Z"
    },
    {
      "code": "STN04",
      "name": "สถานี X.44",
      "basin": "ทะเลสาบสงขลา",
      "amphur": "หาดใหญ่",
      "province": "สงขลา",
      "lat": 7.000695,
      "lon": 100.45623599999982,
      "level": 0.38,
      "bank": 7.4,
      "warning": 7,
      "critical": 7.4,
      "hasImage": true,
      "hasDetail": true,
      "cams": 1,
      "imgStatus": 200,
      "dt": "2026-07-21T16:30:00.000Z"
    },
    {
      "code": "STN05",
      "name": "สถานีคลองต่ำ",
      "basin": "ทะเลสาบสงขลา",
      "amphur": "หาดใหญ่",
      "province": "สงขลา",
      "lat": 6.975436,
      "lon": 100.36766999999979,
      "level": 15.61,
      "bank": 17.8,
      "warning": 17,
      "critical": 17.8,
      "hasImage": true,
      "hasDetail": true,
      "cams": 1,
      "imgStatus": 200,
      "dt": "2026-07-21T16:30:00.000Z"
    },
    {
      "code": "STN06",
      "name": "สถานี X.90",
      "basin": "ทะเลสาบสงขลา",
      "amphur": "หาดใหญ่",
      "province": "สงขลา",
      "lat": 6.9310079,
      "lon": 100.4395819,
      "level": 2.42,
      "bank": 9.53,
      "warning": 9,
      "critical": 9.53,
      "hasImage": true,
      "hasDetail": true,
      "cams": 1,
      "imgStatus": 200,
      "dt": "2026-07-21T16:30:00.000Z"
    },
    {
      "code": "STN07",
      "name": "สถานีคลองหวะ",
      "basin": "ทะเลสาบสงขลา",
      "amphur": "นาหม่อม",
      "province": "สงขลา",
      "lat": 6.970027,
      "lon": 100.51586299999954,
      "level": 13.82,
      "bank": 16.3,
      "warning": 15.5,
      "critical": 16.3,
      "hasImage": true,
      "hasDetail": true,
      "cams": 1,
      "imgStatus": 200,
      "dt": "2026-07-21T16:15:00.000Z"
    },
    {
      "code": "STN08",
      "name": "สถานี ชป.คลองหอยโข่ง",
      "basin": "ทะเลสาบสงขลา",
      "amphur": "คลองหอยโข่ง",
      "province": "สงขลา",
      "lat": 6.831002,
      "lon": 100.35711099999966,
      "level": null,
      "bank": 40,
      "warning": 39,
      "critical": 40,
      "hasImage": true,
      "hasDetail": true,
      "cams": 1,
      "imgStatus": 200,
      "dt": "2026-06-03T05:30:00.000Z"
    },
    {
      "code": "STN09",
      "name": "สถานี X.173A",
      "basin": "ทะเลสาบสงขลา",
      "amphur": "สะเดา",
      "province": "สงขลา",
      "lat": 6.823388,
      "lon": 100.438339,
      "level": -9.99,
      "bank": 18,
      "warning": 17,
      "critical": 18,
      "hasImage": true,
      "hasDetail": true,
      "cams": 1,
      "imgStatus": 200,
      "dt": "2026-07-21T16:30:00.000Z"
    },
    {
      "code": "STN10",
      "name": "สถานีคลองรำใหญ่",
      "basin": "ทะเลสาบสงขลา",
      "amphur": "สะเดา",
      "province": "สงขลา",
      "lat": 6.761329,
      "lon": 100.3991579999998,
      "level": 20.25,
      "bank": 23.3,
      "warning": 22.5,
      "critical": 23.3,
      "hasImage": true,
      "hasDetail": true,
      "cams": 1,
      "imgStatus": 200,
      "dt": "2026-07-21T16:30:00.000Z"
    },
    {
      "code": "STN11",
      "name": "สถานี X.112",
      "basin": "ทะเลสาบสงขลา",
      "amphur": "สะเดา",
      "province": "สงขลา",
      "lat": 6.7052385,
      "lon": 100.43326629999957,
      "level": 20.74,
      "bank": 24.85,
      "warning": 24.05,
      "critical": 24.85,
      "hasImage": true,
      "hasDetail": true,
      "cams": 1,
      "imgStatus": 200,
      "dt": "2026-07-21T16:30:00.000Z"
    },
    {
      "code": "STN12",
      "name": "สถานี X.113",
      "basin": "ทะเลสาบสงขลา",
      "amphur": "สะเดา",
      "province": "สงขลา",
      "lat": 6.635309,
      "lon": 100.39396699999988,
      "level": 32.05,
      "bank": 36.28,
      "warning": 35.48,
      "critical": 36.28,
      "hasImage": true,
      "hasDetail": true,
      "cams": 1,
      "imgStatus": 200,
      "dt": "2026-07-21T16:30:00.000Z"
    },
    {
      "code": "STN13",
      "name": "สถานีอ่างเก็บน้ำสะเดา",
      "basin": "ทะเลสาบสงขลา",
      "amphur": "สะเดา",
      "province": "สงขลา",
      "lat": 6.58059,
      "lon": 100.49647300000028,
      "level": 61.83,
      "bank": 72.3,
      "warning": 71.5,
      "critical": 72.3,
      "hasImage": true,
      "hasDetail": true,
      "cams": 1,
      "imgStatus": 200,
      "dt": "2026-07-21T16:15:00.000Z"
    },
    {
      "code": "TSL02",
      "name": "สถานีโรงสูบน้ำระโนด",
      "basin": "ทะเลสาบสงขลา",
      "amphur": "ระโนด",
      "province": "สงขลา",
      "lat": 7.793278,
      "lon": 100.257958,
      "level": -0.21,
      "bank": 1.55,
      "warning": 0.75,
      "critical": 1.55,
      "hasImage": true,
      "hasDetail": true,
      "cams": 1,
      "imgStatus": 200,
      "dt": "2026-07-21T16:30:00.000Z"
    },
    {
      "code": "TSL03",
      "name": "สถานีปากคลองระโนด",
      "basin": "ทะเลสาบสงขลา",
      "amphur": "ระโนด",
      "province": "สงขลา",
      "lat": 7.769627,
      "lon": 100.3021020000001,
      "level": -0.03,
      "bank": 5,
      "warning": 4,
      "critical": 5,
      "hasImage": true,
      "hasDetail": true,
      "cams": 1,
      "imgStatus": 200,
      "dt": "2026-05-20T04:45:00.000Z"
    },
    {
      "code": "TSL05",
      "name": "สถานีเกาะใหญ่",
      "basin": "ทะเลสาบสงขลา",
      "amphur": "กระแสสินธุ์",
      "province": "สงขลา",
      "lat": 7.590889,
      "lon": 100.29553100000011,
      "level": -9.99,
      "bank": 8,
      "warning": 7,
      "critical": 8,
      "hasImage": true,
      "hasDetail": true,
      "cams": 1,
      "imgStatus": 200,
      "dt": "2026-07-21T16:15:00.000Z"
    },
    {
      "code": "TSL08",
      "name": "สถานีบ้านปากรอ",
      "basin": "ทะเลสาบสงขลา",
      "amphur": "สิงหนคร",
      "province": "สงขลา",
      "lat": 7.26253,
      "lon": 100.425,
      "level": null,
      "bank": 0.97,
      "warning": 0.87,
      "critical": 0.97,
      "hasImage": true,
      "hasDetail": true,
      "cams": 1,
      "imgStatus": 200,
      "dt": "2026-07-08T07:45:00.000Z"
    },
    {
      "code": "TSL09",
      "name": "สถานีบ่อยาง",
      "basin": "ทะเลสาบสงขลา",
      "amphur": "เมือง",
      "province": "สงขลา",
      "lat": 7.200311,
      "lon": 100.58790700000036,
      "level": 0.01,
      "bank": 2.3,
      "warning": 1.5,
      "critical": 2.3,
      "hasImage": true,
      "hasDetail": true,
      "cams": 1,
      "imgStatus": 200,
      "dt": "2026-07-21T16:15:00.000Z"
    },
    {
      "code": "TSL21",
      "name": "โรงเรียนบ้านเขาพระ",
      "basin": "ทะเลสาบสงขลา",
      "amphur": "รัตภูมิ",
      "province": "สงขลา",
      "lat": 7.052742,
      "lon": 100.16645500000041,
      "level": null,
      "bank": 5,
      "warning": 3,
      "critical": 5,
      "hasImage": false,
      "hasDetail": false,
      "cams": 0,
      "imgStatus": null,
      "dt": null
    },
    {
      "code": "TSL22",
      "name": "ฝายชะมวง",
      "basin": "ทะเลสาบสงขลา",
      "amphur": "รัตภูมิ",
      "province": "สงขลา",
      "lat": 7.122886,
      "lon": 100.22521300000011,
      "level": 33.3,
      "bank": 40,
      "warning": 39,
      "critical": 40,
      "hasImage": true,
      "hasDetail": true,
      "cams": 1,
      "imgStatus": 200,
      "dt": "2026-07-21T16:30:00.000Z"
    },
    {
      "code": "TSL23",
      "name": "วัดควนเนียง",
      "basin": "ทะเลสาบสงขลา",
      "amphur": "หาดใหญ่",
      "province": "สงขลา",
      "lat": 6.833256,
      "lon": 100.49885300000038,
      "level": null,
      "bank": 5,
      "warning": 3,
      "critical": 5,
      "hasImage": false,
      "hasDetail": false,
      "cams": 0,
      "imgStatus": null,
      "dt": null
    },
    {
      "code": "TSL24",
      "name": "ปตร.อู่ตะเภา",
      "basin": "ทะเลสาบสงขลา",
      "amphur": "หาดใหญ่",
      "province": "สงขลา",
      "lat": 6.987824,
      "lon": 100.46220500000032,
      "level": 2.37,
      "bank": 8.83,
      "warning": 7.83,
      "critical": 8.83,
      "hasImage": true,
      "hasDetail": true,
      "cams": 1,
      "imgStatus": 200,
      "dt": "2026-07-21T16:30:00.000Z"
    },
    {
      "code": "TSL25",
      "name": "ปตร.หน้าควน",
      "basin": "ทะเลสาบสงขลา",
      "amphur": "หาดใหญ่",
      "province": "สงขลา",
      "lat": 6.98573,
      "lon": 100.45900000000024,
      "level": 0.64,
      "bank": 9.3,
      "warning": 8.3,
      "critical": 9.3,
      "hasImage": true,
      "hasDetail": true,
      "cams": 1,
      "imgStatus": 200,
      "dt": "2026-07-21T16:30:00.000Z"
    },
    {
      "code": "TSL26",
      "name": "ปตร.คลอง ร6",
      "basin": "ทะเลสาบสงขลา",
      "amphur": "หาดใหญ่",
      "province": "สงขลา",
      "lat": 6.994865,
      "lon": 100.50111699999988,
      "level": -9.99,
      "bank": 15.23,
      "warning": 14.23,
      "critical": 15.23,
      "hasImage": true,
      "hasDetail": true,
      "cams": 1,
      "imgStatus": 200,
      "dt": "2026-07-21T16:30:00.000Z"
    },
    {
      "code": "TSL27",
      "name": "ปตร.คลอง 1ซ-ร1",
      "basin": "ทะเลสาบสงขลา",
      "amphur": "หาดใหญ่",
      "province": "สงขลา",
      "lat": 7.008409,
      "lon": 100.44209800000014,
      "level": 0.44,
      "bank": 6.3,
      "warning": 5.3,
      "critical": 6.3,
      "hasImage": true,
      "hasDetail": true,
      "cams": 1,
      "imgStatus": 200,
      "dt": "2026-07-21T16:30:00.000Z"
    },
    {
      "code": "TSL28",
      "name": "ปตร.ท่าช้าง-บางกล่ำ",
      "basin": "ทะเลสาบสงขลา",
      "amphur": "บางกล่ำ",
      "province": "สงขลา",
      "lat": 7.1279278,
      "lon": 100.43327439999982,
      "level": -0.01,
      "bank": 4.06,
      "warning": 3.06,
      "critical": 4.06,
      "hasImage": true,
      "hasDetail": true,
      "cams": 1,
      "imgStatus": 200,
      "dt": "2026-07-21T16:30:00.000Z"
    },
    {
      "code": "TSL29",
      "name": "สถาบันวิจัยการเพาะเลี้ยงสัตว์น้ำชายฝั่ง",
      "basin": "ทะเลสาบสงขลา",
      "amphur": "เมืองสงขลา",
      "province": "สงขลา",
      "lat": 7.18022,
      "lon": 100.623649,
      "level": -9.99,
      "bank": 4,
      "warning": 3,
      "critical": 4,
      "hasImage": false,
      "hasDetail": true,
      "cams": 0,
      "imgStatus": null,
      "dt": "2026-07-21T16:15:00.000Z"
    },
    {
      "code": "TSL30",
      "name": "คลองหลา",
      "basin": "ทะเลสาบสงขลา",
      "amphur": "คลองหอยโข่ง",
      "province": "สงขลา",
      "lat": 6.864742,
      "lon": 100.32759099999981,
      "level": 43.43,
      "bank": 50,
      "warning": 49,
      "critical": 50,
      "hasImage": true,
      "hasDetail": true,
      "cams": 1,
      "imgStatus": 200,
      "dt": "2026-07-21T16:30:00.000Z"
    },
    {
      "code": "TSL31",
      "name": "คลองหอยโข่ง(จำไหร)",
      "basin": "ทะเลสาบสงขลา",
      "amphur": "คลองหอยโข่ง",
      "province": "สงขลา",
      "lat": 6.833849,
      "lon": 100.33468199999969,
      "level": -9.99,
      "bank": 45,
      "warning": 44,
      "critical": 45,
      "hasImage": true,
      "hasDetail": true,
      "cams": 1,
      "imgStatus": 200,
      "dt": "2026-07-21T16:15:00.000Z"
    },
    {
      "code": "TSL37",
      "name": "คลองตงตอนบน",
      "basin": "ทะเลสาบสงขลา",
      "amphur": "หาดใหญ่",
      "province": "สงขลา",
      "lat": 6.81769275399999,
      "lon": 100.55395249999981,
      "level": 39.17,
      "bank": 45.16,
      "warning": 44.16,
      "critical": 45.16,
      "hasImage": true,
      "hasDetail": true,
      "cams": 1,
      "imgStatus": 200,
      "dt": "2026-07-21T16:30:00.000Z"
    },
    {
      "code": "TSL38",
      "name": "คลองตงตอนล่าง",
      "basin": "ทะเลสาบสงขลา",
      "amphur": "หาดใหญ่",
      "province": "สงขลา",
      "lat": 6.848806,
      "lon": 100.47114599999956,
      "level": 10.32,
      "bank": 16.16,
      "warning": 15.16,
      "critical": 16.16,
      "hasImage": true,
      "hasDetail": true,
      "cams": 1,
      "imgStatus": 200,
      "dt": "2026-07-21T16:15:00.000Z"
    },
    {
      "code": "TSL39",
      "name": "คลองหวะตอนบน",
      "basin": "ทะเลสาบสงขลา",
      "amphur": "นาหม่อม",
      "province": "สงขลา",
      "lat": 6.969362,
      "lon": 100.558293,
      "level": 19.61,
      "bank": 25.21,
      "warning": 24.21,
      "critical": 25.21,
      "hasImage": true,
      "hasDetail": true,
      "cams": 1,
      "imgStatus": 200,
      "dt": "2026-07-21T16:30:00.000Z"
    },
    {
      "code": "TSL40",
      "name": "คลองหวะตอนล่าง",
      "basin": "ทะเลสาบสงขลา",
      "amphur": "หาดใหญ่",
      "province": "สงขลา",
      "lat": 6.987312,
      "lon": 100.47404300000021,
      "level": 0.85,
      "bank": 8.39,
      "warning": 7.39,
      "critical": 8.39,
      "hasImage": true,
      "hasDetail": true,
      "cams": 1,
      "imgStatus": 200,
      "dt": "2026-07-21T16:30:00.000Z"
    },
    {
      "code": "Tpat.1",
      "name": "ปากแม่น้ำปัตตานี",
      "basin": "ภาคใต้ฝั่งตะวันออกตอนล่าง",
      "amphur": "เมืองปัตตานี",
      "province": "ปัตตานี",
      "lat": 6.895837,
      "lon": 101.25106699999972,
      "level": null,
      "bank": 0.9,
      "warning": 0.8,
      "critical": 0.9,
      "hasImage": true,
      "hasDetail": true,
      "cams": 1,
      "imgStatus": 200,
      "dt": "2026-07-21T02:45:00.000Z"
    },
    {
      "code": "Tpat.2",
      "name": "เทศบาลเมืองปัตตานี",
      "basin": "ภาคใต้ฝั่งตะวันออกตอนล่าง",
      "amphur": "เมืองปัตตานี",
      "province": "ปัตตานี",
      "lat": 6.860409,
      "lon": 101.2516421999997,
      "level": -0.19,
      "bank": 1.15,
      "warning": 0.65,
      "critical": 1.15,
      "hasImage": true,
      "hasDetail": true,
      "cams": 1,
      "imgStatus": 200,
      "dt": "2026-07-21T16:30:00.000Z"
    },
    {
      "code": "Tpat.3",
      "name": "บ้านแนบุ",
      "basin": "ภาคใต้ฝั่งตะวันออกตอนล่าง",
      "amphur": "หนองจิก",
      "province": "ปัตตานี",
      "lat": 6.799845,
      "lon": 101.25220899999987,
      "level": -999,
      "bank": 3.2,
      "warning": 2.2,
      "critical": 3.2,
      "hasImage": false,
      "hasDetail": true,
      "cams": 0,
      "imgStatus": null,
      "dt": "2026-07-21T16:30:00.000Z"
    },
    {
      "code": "Tpat.4",
      "name": "บ้านบาซาเอ",
      "basin": "ภาคใต้ฝั่งตะวันออกตอนล่าง",
      "amphur": "ยะรัง",
      "province": "ปัตตานี",
      "lat": 6.737495,
      "lon": 101.27317700000029,
      "level": 0.59,
      "bank": 7.15,
      "warning": 6.15,
      "critical": 7.15,
      "hasImage": true,
      "hasDetail": true,
      "cams": 1,
      "imgStatus": 200,
      "dt": "2026-07-21T16:30:00.000Z"
    },
    {
      "code": "Tpat.5",
      "name": "โรงเรียนบ้านคูระ",
      "basin": "ภาคใต้ฝั่งตะวันออกตอนล่าง",
      "amphur": "แม่ลาน",
      "province": "ปัตตานี",
      "lat": 6.684111,
      "lon": 101.279722,
      "level": null,
      "bank": 10.8,
      "warning": 9.8,
      "critical": 10.8,
      "hasImage": false,
      "hasDetail": true,
      "cams": 0,
      "imgStatus": null,
      "dt": null
    },
    {
      "code": "Tpat.6",
      "name": "เขื่อนปัตตานี",
      "basin": "ภาคใต้ฝั่งตะวันออกตอนล่าง",
      "amphur": "เมืองยะลา",
      "province": "ยะลา",
      "lat": 6.675123,
      "lon": 101.28729,
      "level": 12.52,
      "bank": 14.3,
      "warning": 13.3,
      "critical": 14.3,
      "hasImage": true,
      "hasDetail": true,
      "cams": 1,
      "imgStatus": 200,
      "dt": "2026-07-21T16:30:00.000Z"
    },
    {
      "code": "Tpat.7",
      "name": "สะพานท่าสาป",
      "basin": "ภาคใต้ฝั่งตะวันออกตอนล่าง",
      "amphur": "เมืองยะลา",
      "province": "ยะลา",
      "lat": 6.553022,
      "lon": 101.265587,
      "level": null,
      "bank": 16.5,
      "warning": 15.5,
      "critical": 16.5,
      "hasImage": false,
      "hasDetail": true,
      "cams": 0,
      "imgStatus": null,
      "dt": null
    },
    {
      "code": "Tpat.8",
      "name": "บ้านกะดูโด๊ะ",
      "basin": "ภาคใต้ฝั่งตะวันออกตอนล่าง",
      "amphur": "กรงปินัง",
      "province": "ยะลา",
      "lat": 6.411894,
      "lon": 101.277571,
      "level": null,
      "bank": 24.8,
      "warning": 23.8,
      "critical": 24.8,
      "hasImage": false,
      "hasDetail": true,
      "cams": 0,
      "imgStatus": null,
      "dt": null
    },
    {
      "code": "Tpat.9",
      "name": "บ้านยีลาปัน",
      "basin": "ภาคใต้ฝั่งตะวันออกตอนล่าง",
      "amphur": "บันนังสตา",
      "province": "ยะลา",
      "lat": 6.272894,
      "lon": 101.268235,
      "level": null,
      "bank": 41.6,
      "warning": 40.6,
      "critical": 41.6,
      "hasImage": false,
      "hasDetail": true,
      "cams": 0,
      "imgStatus": null,
      "dt": null
    },
    {
      "code": "Tpat.10",
      "name": "ท้ายเขื่อนบางลาง",
      "basin": "ภาคใต้ฝั่งตะวันออกตอนล่าง",
      "amphur": "บันนังสตา",
      "province": "ยะลา",
      "lat": 6.160801,
      "lon": 101.27608099999972,
      "level": 40.77,
      "bank": 50.6,
      "warning": 49.8,
      "critical": 50.6,
      "hasImage": true,
      "hasDetail": true,
      "cams": 1,
      "imgStatus": 200,
      "dt": "2026-07-21T16:30:00.000Z"
    },
    {
      "code": "Tpat.11",
      "name": "ปตร.ปลายคลอง D8",
      "basin": "ภาคใต้ฝั่งตะวันออกตอนล่าง",
      "amphur": "เมืองปัตตานี",
      "province": "ปัตตานี",
      "lat": 6.862393,
      "lon": 101.21013700000037,
      "level": 0.11,
      "bank": 2,
      "warning": 1,
      "critical": 2,
      "hasImage": false,
      "hasDetail": true,
      "cams": 0,
      "imgStatus": null,
      "dt": "2026-07-21T16:30:00.000Z"
    },
    {
      "code": "Tpat.12",
      "name": "ปตร.ตุยง",
      "basin": "ภาคใต้ฝั่งตะวันออกตอนล่าง",
      "amphur": "หนองจิก",
      "province": "ปัตตานี",
      "lat": 6.836174,
      "lon": 101.171389,
      "level": 0.36,
      "bank": 2.6,
      "warning": 1.6,
      "critical": 2.6,
      "hasImage": true,
      "hasDetail": true,
      "cams": 1,
      "imgStatus": 200,
      "dt": "2026-07-21T16:30:00.000Z"
    },
    {
      "code": "Tpat.13",
      "name": "บ้านกาแลภูมิ",
      "basin": "ภาคใต้ฝั่งตะวันออกตอนล่าง",
      "amphur": "หนองจิก",
      "province": "ปัตตานี",
      "lat": 6.764642,
      "lon": 101.235515,
      "level": null,
      "bank": 10.3,
      "warning": 9.3,
      "critical": 10.3,
      "hasImage": false,
      "hasDetail": true,
      "cams": 0,
      "imgStatus": null,
      "dt": null
    },
    {
      "code": "Tpat.14",
      "name": "ปตร.D2",
      "basin": "ภาคใต้ฝั่งตะวันออกตอนล่าง",
      "amphur": "หนองจิก",
      "province": "ปัตตานี",
      "lat": 6.837368,
      "lon": 101.134828,
      "level": -9.99,
      "bank": 3.8,
      "warning": 3.5,
      "critical": 3.8,
      "hasImage": false,
      "hasDetail": true,
      "cams": 0,
      "imgStatus": null,
      "dt": "2026-07-21T16:30:00.000Z"
    },
    {
      "code": "Tpat.15",
      "name": "บ้านตาสา",
      "basin": "ภาคใต้ฝั่งตะวันออกตอนล่าง",
      "amphur": "เมืองยะลา",
      "province": "ยะลา",
      "lat": 6.559238,
      "lon": 101.21992400000042,
      "level": null,
      "bank": 20,
      "warning": 19.5,
      "critical": 20,
      "hasImage": true,
      "hasDetail": true,
      "cams": 1,
      "imgStatus": 200,
      "dt": "2026-04-28T06:30:00.000Z"
    },
    {
      "code": "Tpat.16",
      "name": "โรงเรียนลำพะยาประชานุเคราะห์",
      "basin": "ภาคใต้ฝั่งตะวันออกตอนล่าง",
      "amphur": "เมืองยะลา",
      "province": "ยะลา",
      "lat": 6.57629,
      "lon": 101.157013,
      "level": null,
      "bank": 5,
      "warning": 3,
      "critical": 5,
      "hasImage": false,
      "hasDetail": false,
      "cams": 0,
      "imgStatus": null,
      "dt": null
    },
    {
      "code": "Tpat.17",
      "name": "บ้านอาบอ",
      "basin": "ภาคใต้ฝั่งตะวันออกตอนล่าง",
      "amphur": "ยะหา",
      "province": "ยะลา",
      "lat": 6.474093,
      "lon": 101.14681499999956,
      "level": 23.19,
      "bank": 35.2,
      "warning": 34.2,
      "critical": 35.2,
      "hasImage": true,
      "hasDetail": true,
      "cams": 1,
      "imgStatus": 200,
      "dt": "2026-07-21T16:30:00.000Z"
    },
    {
      "code": "Tpat.18",
      "name": "โรงเรียนบ้านบายอ",
      "basin": "ภาคใต้ฝั่งตะวันออกตอนล่าง",
      "amphur": "ยะหา",
      "province": "ยะลา",
      "lat": 6.373556,
      "lon": 101.110538,
      "level": null,
      "bank": 5,
      "warning": 3,
      "critical": 5,
      "hasImage": false,
      "hasDetail": false,
      "cams": 0,
      "imgStatus": null,
      "dt": null
    },
    {
      "code": "Tpat.19",
      "name": "โรงเรียนสันติวิทยา",
      "basin": "ภาคใต้ฝั่งตะวันออกตอนล่าง",
      "amphur": "กรงปินัง",
      "province": "ยะลา",
      "lat": 6.412173,
      "lon": 101.209856,
      "level": null,
      "bank": 5,
      "warning": 3,
      "critical": 5,
      "hasImage": false,
      "hasDetail": false,
      "cams": 0,
      "imgStatus": null,
      "dt": null
    },
    {
      "code": "Tpat.20",
      "name": "รร.บ้านหลักเขต",
      "basin": "ภาคใต้ฝั่งตะวันออกตอนล่าง",
      "amphur": "บันนังสตา",
      "province": "ยะลา",
      "lat": 6.318268,
      "lon": 101.216592,
      "level": null,
      "bank": 5,
      "warning": 3,
      "critical": 5,
      "hasImage": false,
      "hasDetail": false,
      "cams": 0,
      "imgStatus": null,
      "dt": null
    },
    {
      "code": "Tpat.21",
      "name": "บ้านกูหมัง",
      "basin": "ภาคใต้ฝั่งตะวันออกตอนล่าง",
      "amphur": "บันนังสตา",
      "province": "ยะลา",
      "lat": 6.226084,
      "lon": 101.222579,
      "level": 55.13,
      "bank": 61.77,
      "warning": 60.77,
      "critical": 61.77,
      "hasImage": true,
      "hasDetail": true,
      "cams": 1,
      "imgStatus": 200,
      "dt": "2026-07-21T16:30:00.000Z"
    },
    {
      "code": "Tpat.22",
      "name": "ฟาร์มตัวอย่างฯ ธารโต",
      "basin": "ภาคใต้ฝั่งตะวันออกตอนล่าง",
      "amphur": "ธารโต",
      "province": "ยะลา",
      "lat": 6.168887,
      "lon": 101.184206,
      "level": null,
      "bank": 5,
      "warning": 3,
      "critical": 5,
      "hasImage": false,
      "hasDetail": false,
      "cams": 0,
      "imgStatus": null,
      "dt": null
    },
    {
      "code": "Tpat.23",
      "name": "เทศบาลตำบลบุดี",
      "basin": "ภาคใต้ฝั่งตะวันออกตอนล่าง",
      "amphur": "เมืองยะลา",
      "province": "ยะลา",
      "lat": 6.508855,
      "lon": 101.3178969999996,
      "level": null,
      "bank": 5,
      "warning": 3,
      "critical": 5,
      "hasImage": false,
      "hasDetail": false,
      "cams": 0,
      "imgStatus": null,
      "dt": null
    },
    {
      "code": "Tpat.24",
      "name": "นิคมสร้างตนเองพัฒนาภาคใต้",
      "basin": "ภาคใต้ฝั่งตะวันออกตอนล่าง",
      "amphur": "บันนังสตา",
      "province": "ยะลา",
      "lat": 6.312759,
      "lon": 101.36335399999969,
      "level": null,
      "bank": 5,
      "warning": 3,
      "critical": 5,
      "hasImage": false,
      "hasDetail": false,
      "cams": 0,
      "imgStatus": null,
      "dt": null
    },
    {
      "code": "Tpat.25",
      "name": "บ้านทรายแก้ว",
      "basin": "ภาคใต้ฝั่งตะวันออกตอนล่าง",
      "amphur": "บันนังสตา",
      "province": "ยะลา",
      "lat": 6.271591,
      "lon": 101.332357,
      "level": null,
      "bank": 66.2,
      "warning": 65.2,
      "critical": 66.2,
      "hasImage": false,
      "hasDetail": true,
      "cams": 0,
      "imgStatus": null,
      "dt": null
    },
    {
      "code": "Tpat.26",
      "name": "คลองเบตง",
      "basin": "ภาคใต้ฝั่งตะวันออกตอนล่าง",
      "amphur": "เบตง",
      "province": "ยะลา",
      "lat": 5.776339,
      "lon": 101.06355900000032,
      "level": null,
      "bank": 268.7,
      "warning": 267.7,
      "critical": 268.7,
      "hasImage": false,
      "hasDetail": true,
      "cams": 0,
      "imgStatus": null,
      "dt": null
    },
    {
      "code": "Tkol.1(TX.357)",
      "name": "บ้านตาบา",
      "basin": "ภาคใต้ฝั่งตะวันออกตอนล่าง",
      "amphur": "ตากใบ",
      "province": "นราธิวาส",
      "lat": 6.244397,
      "lon": 102.084393,
      "level": null,
      "bank": 1.8,
      "warning": 1,
      "critical": 1.8,
      "hasImage": false,
      "hasDetail": true,
      "cams": 0,
      "imgStatus": null,
      "dt": null
    },
    {
      "code": "Tkol.2(TX.358)",
      "name": "โรงเรียนบ้านปะลุกา",
      "basin": "ภาคใต้ฝั่งตะวันออกตอนล่าง",
      "amphur": "อ.ตากใบ",
      "province": "นราธิวาส",
      "lat": 6.180447,
      "lon": 102.08015699999979,
      "level": 0.06,
      "bank": 1.5,
      "warning": 1.2,
      "critical": 1.5,
      "hasImage": true,
      "hasDetail": true,
      "cams": 1,
      "imgStatus": 200,
      "dt": "2026-07-21T16:30:00.000Z"
    },
    {
      "code": "Tkol.3(TX.359)",
      "name": "บ้านบรือโมง",
      "basin": "ภาคใต้ฝั่งตะวันออกตอนล่าง",
      "amphur": "สุไหงโก-ลก",
      "province": "นราธิวาส",
      "lat": 6.07416,
      "lon": 102.0403000000002,
      "level": null,
      "bank": 5.6,
      "warning": 4.6,
      "critical": 5.6,
      "hasImage": false,
      "hasDetail": true,
      "cams": 0,
      "imgStatus": null,
      "dt": null
    },
    {
      "code": "Tkol.4(TX.360)",
      "name": "สวนสิรินธร",
      "basin": "ภาคใต้ฝั่งตะวันออกตอนล่าง",
      "amphur": "สุไหงโก-ลก",
      "province": "นราธิวาส",
      "lat": 6.023269,
      "lon": 101.97545700000028,
      "level": null,
      "bank": 10.2,
      "warning": 9.2,
      "critical": 10.2,
      "hasImage": true,
      "hasDetail": true,
      "cams": 1,
      "imgStatus": 200,
      "dt": "2026-06-01T08:15:00.000Z"
    },
    {
      "code": "Tkol.5(TX.361)",
      "name": "บ้านตอออ",
      "basin": "ภาคใต้ฝั่งตะวันออกตอนล่าง",
      "amphur": "แว้ง",
      "province": "นราธิวาส",
      "lat": 5.961487,
      "lon": 101.941258,
      "level": null,
      "bank": 7.3,
      "warning": 6.3,
      "critical": 7.3,
      "hasImage": false,
      "hasDetail": true,
      "cams": 0,
      "imgStatus": null,
      "dt": null
    },
    {
      "code": "Tkol.6(TX.362)",
      "name": "บ้านบางขุด",
      "basin": "ภาคใต้ฝั่งตะวันออกตอนล่าง",
      "amphur": "แว้ง",
      "province": "นราธิวาส",
      "lat": 5.92406,
      "lon": 101.923527,
      "level": null,
      "bank": 16.4,
      "warning": 15.4,
      "critical": 16.4,
      "hasImage": false,
      "hasDetail": true,
      "cams": 0,
      "imgStatus": null,
      "dt": null
    },
    {
      "code": "Tkol.7",
      "name": "บ้านบูเก๊ะตา",
      "basin": "ภาคใต้ฝั่งตะวันออกตอนล่าง",
      "amphur": "แว้ง",
      "province": "นราธิวาส",
      "lat": 5.83925,
      "lon": 101.892283,
      "level": null,
      "bank": 23.2,
      "warning": 22.2,
      "critical": 23.2,
      "hasImage": false,
      "hasDetail": true,
      "cams": 0,
      "imgStatus": null,
      "dt": null
    },
    {
      "code": "Tkol.8",
      "name": "บ้านบาลา",
      "basin": "ภาคใต้ฝั่งตะวันออกตอนล่าง",
      "amphur": "แว้ง",
      "province": "นราธิวาส",
      "lat": 5.807959,
      "lon": 101.84506500000043,
      "level": null,
      "bank": 5,
      "warning": 3,
      "critical": 5,
      "hasImage": false,
      "hasDetail": false,
      "cams": 0,
      "imgStatus": null,
      "dt": null
    },
    {
      "code": "Tkol.9",
      "name": "บ้านราษฎร์พัฒนา",
      "basin": "ภาคใต้ฝั่งตะวันออกตอนล่าง",
      "amphur": "แว้ง",
      "province": "นราธิวาส",
      "lat": 5.8558,
      "lon": 101.88110000000012,
      "level": null,
      "bank": 5,
      "warning": 3,
      "critical": 5,
      "hasImage": false,
      "hasDetail": false,
      "cams": 0,
      "imgStatus": null,
      "dt": null
    },
    {
      "code": "Tkol.10",
      "name": "โรงเรียนบ้านกรือซอ",
      "basin": "ภาคใต้ฝั่งตะวันออกตอนล่าง",
      "amphur": "แว้ง",
      "province": "นราธิวาส",
      "lat": 5.9341,
      "lon": 101.8331,
      "level": null,
      "bank": 5,
      "warning": 3,
      "critical": 5,
      "hasImage": false,
      "hasDetail": false,
      "cams": 0,
      "imgStatus": null,
      "dt": null
    },
    {
      "code": "Tkol.11",
      "name": "บ้านแว้ง",
      "basin": "ภาคใต้ฝั่งตะวันออกตอนล่าง",
      "amphur": "แว้ง",
      "province": "นราธิวาส",
      "lat": 5.9266,
      "lon": 101.88410000000029,
      "level": 18.75,
      "bank": 20.3,
      "warning": 19.5,
      "critical": 20.3,
      "hasImage": true,
      "hasDetail": true,
      "cams": 1,
      "imgStatus": 200,
      "dt": "2026-07-21T16:30:00.000Z"
    },
    {
      "code": "Tkol.12",
      "name": "บ้านบาโงมาแย",
      "basin": "ภาคใต้ฝั่งตะวันออกตอนล่าง",
      "amphur": "สุไหงปาดี",
      "province": "นราธิวาส",
      "lat": 5.9973,
      "lon": 101.8636,
      "level": null,
      "bank": 32.6,
      "warning": 31.6,
      "critical": 32.6,
      "hasImage": false,
      "hasDetail": true,
      "cams": 0,
      "imgStatus": null,
      "dt": null
    },
    {
      "code": "Tkol.13",
      "name": "อบต กายูคละ",
      "basin": "ภาคใต้ฝั่งตะวันออกตอนล่าง",
      "amphur": "แว้ง",
      "province": "นราธิวาส",
      "lat": 5.9686,
      "lon": 101.9227,
      "level": null,
      "bank": 5,
      "warning": 3,
      "critical": 5,
      "hasImage": false,
      "hasDetail": false,
      "cams": 0,
      "imgStatus": null,
      "dt": null
    },
    {
      "code": "Tkol.14",
      "name": "บ้านกาวะ",
      "basin": "ภาคใต้ฝั่งตะวันออกตอนล่าง",
      "amphur": "สุไหงปาดี",
      "province": "นราธิวาส",
      "lat": 6.0304,
      "lon": 101.8956,
      "level": 19.71,
      "bank": 38,
      "warning": 37,
      "critical": 38,
      "hasImage": true,
      "hasDetail": true,
      "cams": 1,
      "imgStatus": 200,
      "dt": "2026-07-21T16:30:00.000Z"
    },
    {
      "code": "Tkol.15",
      "name": "อบต.ริโก๋",
      "basin": "ภาคใต้ฝั่งตะวันออกตอนล่าง",
      "amphur": "สุไหงปาดี",
      "province": "นราธิวาส",
      "lat": 6.0515,
      "lon": 101.8626,
      "level": null,
      "bank": 5,
      "warning": 3,
      "critical": 5,
      "hasImage": false,
      "hasDetail": false,
      "cams": 0,
      "imgStatus": null,
      "dt": null
    },
    {
      "code": "Tkol.16",
      "name": "หน้า ทรบ. ปากคลองปาเสมัส",
      "basin": "ภาคใต้ฝั่งตะวันออกตอนล่าง",
      "amphur": "สุไหงโก-ลก",
      "province": "นราธิวาส",
      "lat": 6.0318,
      "lon": 101.9766,
      "level": null,
      "bank": 9.4,
      "warning": 8.4,
      "critical": 9.4,
      "hasImage": false,
      "hasDetail": true,
      "cams": 0,
      "imgStatus": null,
      "dt": null
    },
    {
      "code": "Tkol.17",
      "name": "ท้าย ทรบ. ปากคลองปาเสมัส",
      "basin": "ภาคใต้ฝั่งตะวันออกตอนล่าง",
      "amphur": "สุไหงโก-ลก",
      "province": "นราธิวาส",
      "lat": 6.0371,
      "lon": 101.975,
      "level": null,
      "bank": 9.7,
      "warning": 8.7,
      "critical": 9.7,
      "hasImage": false,
      "hasDetail": true,
      "cams": 0,
      "imgStatus": null,
      "dt": null
    },
    {
      "code": "Tkol.18",
      "name": "ปตร.ปากคลองมูโนะ",
      "basin": "ภาคใต้ฝั่งตะวันออกตอนล่าง",
      "amphur": "สุไหงโก-ลก",
      "province": "นราธิวาส",
      "lat": 6.0768,
      "lon": 102.0405,
      "level": null,
      "bank": 6.2,
      "warning": 5.2,
      "critical": 6.2,
      "hasImage": false,
      "hasDetail": true,
      "cams": 0,
      "imgStatus": null,
      "dt": null
    },
    {
      "code": "Tkol.19",
      "name": "ปตร.ปลายคลองโต๊ะแดง",
      "basin": "ภาคใต้ฝั่งตะวันออกตอนล่าง",
      "amphur": "ตากใบ",
      "province": "นราธิวาส",
      "lat": 6.1586,
      "lon": 102.05649999999974,
      "level": 0.75,
      "bank": 3.3,
      "warning": 2.3,
      "critical": 3.3,
      "hasImage": true,
      "hasDetail": true,
      "cams": 1,
      "imgStatus": 200,
      "dt": "2026-07-21T16:30:00.000Z"
    },
    {
      "code": "Tkol.20",
      "name": "บ้านลาแล",
      "basin": "ภาคใต้ฝั่งตะวันออกตอนล่าง",
      "amphur": "สุไหงโก-ลก",
      "province": "นราธิวาส",
      "lat": 6.0832,
      "lon": 102.0112,
      "level": 3.35,
      "bank": 6.7,
      "warning": 5.7,
      "critical": 6.7,
      "hasImage": true,
      "hasDetail": true,
      "cams": 1,
      "imgStatus": 200,
      "dt": "2026-07-21T16:15:00.000Z"
    },
    {
      "code": "Tkol.21",
      "name": "บ้านไอบาตู",
      "basin": "ภาคใต้ฝั่งตะวันออกตอนล่าง",
      "amphur": "สุไหงปาดี",
      "province": "นราธิวาส",
      "lat": 6.1017,
      "lon": 102.0655,
      "level": null,
      "bank": 19.2,
      "warning": 18.2,
      "critical": 19.2,
      "hasImage": false,
      "hasDetail": true,
      "cams": 0,
      "imgStatus": null,
      "dt": null
    },
    {
      "code": "Tkol.22",
      "name": "บ้านใหม่",
      "basin": "ภาคใต้ฝั่งตะวันออกตอนล่าง",
      "amphur": "สุไหงปาดี",
      "province": "นราธิวาส",
      "lat": 6.1226,
      "lon": 101.9227000000001,
      "level": null,
      "bank": 5,
      "warning": 3,
      "critical": 5,
      "hasImage": false,
      "hasDetail": false,
      "cams": 0,
      "imgStatus": null,
      "dt": null
    },
    {
      "code": "Tkol.23",
      "name": "บ้านโคกกูแว",
      "basin": "ภาคใต้ฝั่งตะวันออกตอนล่าง",
      "amphur": "อ.ตากใบ",
      "province": "นราธิวาส",
      "lat": 6.1882,
      "lon": 102.0257,
      "level": null,
      "bank": 5,
      "warning": 3,
      "critical": 5,
      "hasImage": false,
      "hasDetail": false,
      "cams": 0,
      "imgStatus": null,
      "dt": null
    },
    {
      "code": "Tkol.24",
      "name": "ทรบ.คลองระบายสายที่ 13",
      "basin": "ภาคใต้ฝั่งตะวันออกตอนล่าง",
      "amphur": "ตากใบ",
      "province": "นราธิวาส",
      "lat": 6.20995,
      "lon": 102.01443199999967,
      "level": 0.7,
      "bank": 1.8,
      "warning": 0.7,
      "critical": 1.8,
      "hasImage": true,
      "hasDetail": true,
      "cams": 1,
      "imgStatus": 200,
      "dt": "2026-07-21T16:30:00.000Z"
    },
    {
      "code": "Tkol.25",
      "name": "ปตร.ปูยู",
      "basin": "ภาคใต้ฝั่งตะวันออกตอนล่าง",
      "amphur": "ตากใบ",
      "province": "นราธิวาส",
      "lat": 6.2278,
      "lon": 102.0401,
      "level": null,
      "bank": 2.4,
      "warning": 1.4,
      "critical": 2.4,
      "hasImage": false,
      "hasDetail": true,
      "cams": 0,
      "imgStatus": null,
      "dt": null
    }
  ]
}